  [
        {
            "city": "Адлер",
            "name": "Магазин \"Дети и моyes\"",
            "address": "ул. Демократическая, д. 53А, пав. 108",
            "brand": "no",
            "latitude": "43.426395",
            "longitude": "39.926297",
            "school": "yes",
            "life": "yes",
            "phone": " "
        },
        {
            "city": "Аксай",
            "name": "Магазин \"Андерсен\"",
            "address": "СТЦ \"МЕГА\", пр-т Аксайский, д. 23",
            "brand": "no",
            "latitude": "47.290051",
            "longitude": "39.846535",
            "pulka": "yes",
            "ceremony": "yes",
            "school": "yes",
            "life": "yes",
            "phone": " "
        },
        {
            "city": "Алматы",
            "name": "Магазин \"Happy Kingdom\"",
            "address": "ТЦ \"Dostyk Plaza\", 111, мкр Самал-2, офис 20",
            "brand": "no",
            "latitude": "43.233432",
            "longitude": "76.956425",
            "school": "yes",
            "phone": " "
        },
        {
            "city": "Ангарск",
            "name": "Магазин \"Александр\"",
            "address": "22-й микрорайон, 42, помещ. 261",
            "brand": "no",
            "latitude": "52.511184",
            "longitude": "103.850206",
            "pulka": "yes",
            "phone": " "
        },
        {
            "city": "Ангарск",
            "name": "Магазин \"Карусель\"",
            "address": "ТЦ \"Фестиваль\", 192-й квартал, зyesние 12",
            "brand": "no",
            "latitude": "52.503881",
            "longitude": "103.841810",
            "school": "yes",
            "life": "yes",
            "phone": " "
        },
        {
            "city": "Ангарск",
            "name": "Магазин \"Silver Kids\"",
            "address": "ТЦ \"Фестиваль\", 192-й квартал, зyesние 12",
            "brand": "no",
            "latitude": "52.503881",
            "longitude": "103.841810",
            "school": "yes",
            "life": "yes",
            "phone": " "
        },
        {
            "city": "Армавир",
            "name": "Магазин \"Primigi\"",
            "address": "ТЦ \"Красная площадь\", ул. Воровского, д. 69",
            "brand": "no",
            "latitude": "44.983327",
            "longitude": "41.096664",
            "pulka": "yes",
            "school": "yes",
            "phone": " "
        },
        {
            "city": "аул Новая Адыгея",
            "name": "Магазин \"Primigi\"",
            "address": "ТЦ \"Мега-Адыгея\", Тургеневское шоссе, д. 27",
            "brand": "no",
            "latitude": "45.014858",
            "longitude": "38.930280",
            "pulka": "yes",
            "school": "yes",
            "phone": " "
        },
        {
            "city": "Ахмат-Юрт",
            "name": "Магазин \"Детская одежyes\"",
            "address": "ул. Сакказова, д. 122",
            "brand": "no",
            "latitude": "43.225153",
            "longitude": "46.247417",
            "pulka": "yes",
            "school": "yes",
            "phone": " "
        },
        {
            "city": "Балашиха",
            "name": "Магазин \"Радуга\"",
            "address": "ТЦ \"Престиж\", ул. Твардовского, д. 10А",
            "brand": "no",
            "latitude": "55.791982",
            "longitude": "37.978075",
            "school": "yes",
            "phone": " "
        },
        {
            "city": "Белгород",
            "name": "Магазин \"Classy\"",
            "address": "пр-т Богyesна Хмельницкого, д. 60А",
            "brand": "no",
            "latitude": "50.607929",
            "longitude": "36.580899",
            "ceremony": "yes",
            "school": "yes",
            "life": "yes",
            "phone": " "
        },
        {
            "city": "Благовещенск",
            "name": "Магазин \"Kids&Teens\"",
            "address": "ул. Островского, д. 12",
            "brand": "no",
            "latitude": "50.258700",
            "longitude": "127.536435",
            "pulka": "yes",
            "school": "yes",
            "life": "yes",
            "phone": " "
        },
        {
            "city": "Брянск",
            "name": "ТРЦ \"Аэропарк\"",
            "address": "ул. Объездная, д. 30, 2 этаж",
            "brand": "yes",
            "latitude": "53.275477",
            "longitude": "34.315877",
            "pulka": "yes",
            "ceremony": "yes",
            "school": "yes",
            "life": "yes",
            "phone": "+7(4832) 37-11-60, +7(4832) 37-11-88"
        },
        {
            "city": "Буйнакск",
            "name": "ТЦ \"МЕГА\"",
            "address": "ул. Им. Шамиля, д. 57",
            "brand": "no",
            "latitude": "42.821497",
            "longitude": "47.122727",
            "school": "yes",
            "life": "yes",
            "phone": " "
        },
        {
            "city": "Владивосток",
            "name": "Супермаркет детской обуви \"Ёгого\"",
            "address": "ТЦ \"Галерея\", Океанский пр-т, д. 69",
            "brand": "no",
            "latitude": "43.128604",
            "longitude": "131.892168",
            "pulka": "yes",
            "ceremony": "yes",
            "school": "yes",
            "life": "yes",
            "phone": " "
        },
        {
            "city": "Владивосток",
            "name": "Магазин \"Детская правильная обувь\"",
            "address": "ТЦ \"Галерея\", Океанский пр-т, д. 69, зал № 8",
            "brand": "no",
            "latitude": "43.128604",
            "longitude": "131.892168",
            "school": "yes",
            "phone": " "
        },
        {
            "city": "Владивосток",
            "name": "Магазин \"Ваmbini\"",
            "address": "ТЦ \"Сеyesнка-Сити\", ул. Полетаева, д. 6",
            "brand": "no",
            "latitude": "43.212614",
            "longitude": "131.950882",
            "pulka": "yes",
            "school": "yes",
            "phone": " "
        },
        {
            "city": "Владивосток",
            "name": "Магазин \"Детская одежyes\" ",
            "address": "ТЦ \"Калина молл\", ул. Калинина, д. 8",
            "brand": "no",
            "latitude": "43.102622",
            "longitude": "131.917501",
            "school": "yes",
            "phone": " "
        },
        {
            "city": "Владикавказ",
            "name": "Магазин \"Caramel\"",
            "address": "ТРЦ \"Алания Молл\", Московское шоссе, 3К",
            "brand": "no",
            "latitude": "43.033599",
            "longitude": "44.642721",
            "school": "yes",
            "phone": " "
        },
        {
            "city": "Владикавказ",
            "name": "Магазин \"Angel Baby\"",
            "address": "ТРЦ \"Столица\" ул. Кесаева, д. 2А",
            "brand": "no",
            "latitude": "43.052885",
            "longitude": "44.639101",
            "school": "yes",
            "phone": " "
        },
        {
            "city": "Владикавказ",
            "name": "Магазин \"Стрекоза\"",
            "address": "ул. Тамаева, д. 36",
            "brand": "no",
            "latitude": "43.034186",
            "longitude": "44.685490",
            "pulka": "yes",
            "school": "yes",
            "life": "yes",
            "phone": " "
        },
        {
            "city": "Владикавказ",
            "name": "Магазин \"Baby Club\"",
            "address": "ул. Маяковского, д. 24",
            "brand": "no",
            "latitude": "43.033151",
            "longitude": "44.681043",
            "school": "yes",
            "life": "yes",
            "phone": " "
        },
        {
            "city": "Владикавказ",
            "name": "Магазин \"Мишутка\"",
            "address": "ул. Ленина, д. 63",
            "brand": "no",
            "latitude": "43.033500",
            "longitude": "44.681726",
            "school": "yes",
            "phone": " "
        },
        {
            "city": "Владимир",
            "name": "Магазин \"Waikiki\"",
            "address": "ТЦ \"Торговые ряды\", ул. Большая Московская, д. 19А",
            "brand": "no",
            "latitude": "56.128330",
            "longitude": "40.403032",
            "school": "yes",
            "phone": " "
        },
        {
            "city": "Владимир",
            "name": "Магазин \"BABY LAND\"",
            "address": "ул. Большая Московская, д. 19",
            "brand": "no",
            "latitude": "56.128480",
            "longitude": "40.403949",
            "pulka": "yes",
            "phone": " "
        },
        {
            "city": "Волгоград",
            "name": "Магазин \"JOY\"",
            "address": "ул. Маршала Ерёменко, д. 126",
            "brand": "no",
            "latitude": "48.782856",
            "longitude": "44.563032",
            "school": "yes",
            "phone": " "
        },
        {
            "city": "Воронеж",
            "name": "Магазин \"НаследникЪ Выжанова\"",
            "address": "ул. Пехановская, д. 9",
            "brand": "no",
            "latitude": "51.662322",
            "longitude": "39.198041",
            "school": "yes",
            "phone": " "
        },
        {
            "city": "Воронеж",
            "name": "Магазин \"Детский город\"",
            "address": "пл. Ленина, д. 15",
            "brand": "no",
            "latitude": "51.660915",
            "longitude": "39.202335",
            "pulka": "yes",
            "school": "yes",
            "life": "yes",
            "phone": " "
        },
        {
            "city": "Воскресенск",
            "name": "Магазин \"Пиноккио\"",
            "address": "ул. Октябрьская, д. 6",
            "brand": "no",
            "latitude": "55.322215",
            "longitude": "38.676560",
            "school": "yes",
            "phone": " "
        },
        {
            "city": "Грозный",
            "name": "Магазин \"Кенгуру\"",
            "address": "ДТЦ , ул. Жуковского, д. 39",
            "brand": "no",
            "latitude": "43.334801",
            "longitude": "45.709605",
            "school": "yes",
            "phone": " "
        },
        {
            "city": "Грозный",
            "name": "Магазин \"Кенгуру\"",
            "address": "ул. Сайпуддина Лорсанова, д. 2",
            "brand": "no",
            "latitude": "43.323803",
            "longitude": "45.686213",
            "school": "yes",
            "phone": " "
        },
        {
            "city": "Грозный",
            "name": "Магазин \"Каyesбо\"",
            "address": "ул. Сайпуддина Лорсанова, д. 10",
            "brand": "no",
            "latitude": "43.321304",
            "longitude": "45.691199",
            "pulka": "yes",
            "school": "yes",
            "phone": " "
        },
        {
            "city": "Дзержинский",
            "name": "Магазин \"Gallery-Beauty\"",
            "address": "ТЦ \"Созвездие Ароматов\", ул. Лесная, д. 1, пом. 508",
            "brand": "no",
            "latitude": "55.630812",
            "longitude": "37.853892",
            "school": "yes",
            "phone": " "
        },
        {
            "city": "Екатеринбург",
            "name": "Магазин \"Stella\"",
            "address": "ТЦ \"Европа\", пр-т Ленина, д. 25",
            "brand": "no",
            "latitude": "56.838312",
            "longitude": "60.595040",
            "school": "yes",
            "phone": " "
        },
        {
            "city": "Екатеринбург",
            "name": "\"СТОКМАНН\"",
            "address": "ТРЦ \"Гринвич\", ул. 8 Марта, д. 46",
            "brand": "no",
            "latitude": "56.829103",
            "longitude": "60.598939",
            "pulka": "yes",
            "ceremony": "yes",
            "school": "yes",
            "phone": " "
        },
        {
            "city": "Екатеринбург",
            "name": "Магазин \"Primigi\"",
            "address": "ТЦ \"Гринвич\", ул. 8 марта, д. 46",
            "brand": "no",
            "latitude": "56.829103",
            "longitude": "60.598939",
            "pulka": "yes",
            "ceremony": "yes",
            "school": "yes",
            "phone": " "
        },
        {
            "city": "Екатеринбург",
            "name": "Магазин \"Primigi\"",
            "address": "ТЦ \"Радуга\", ул. Репина, д. 94",
            "brand": "no",
            "latitude": "56.817178",
            "longitude": "60.538536",
            "pulka": "yes",
            "ceremony": "yes",
            "school": "yes",
            "phone": " "
        },
        {
            "city": "Екатеринбург",
            "name": "Магазин \"7 гномов\"",
            "address": "ул. Хохрякова, д. 16",
            "brand": "no",
            "latitude": "56.834653",
            "longitude": "60.591285",
            "school": "yes",
            "phone": " "
        },
        {
            "city": "Екатеринбург",
            "name": "Магазин \"Сказочная страна\"",
            "address": "ул. Куйбышева, д. 21",
            "brand": "no",
            "latitude": "56.826065",
            "longitude": "60.589991",
            "school": "yes",
            "phone": " "
        },
        {
            "city": "Екатеринбург",
            "name": "Магазин \"Сказочная страна\"",
            "address": "ул. Бабушкина, д. 45",
            "brand": "no",
            "latitude": "56.892719",
            "longitude": "60.616977",
            "school": "yes",
            "phone": " "
        },
        {
            "city": "Екатеринбург",
            "name": "Магазин \"Сказочная страна\"",
            "address": "ул. Циолковского, д. 27",
            "brand": "no",
            "latitude": "56.804416",
            "longitude": "60.601400",
            "school": "yes",
            "phone": " "
        },
        {
            "city": "Иваново",
            "name": "Магазин \"Золушка\"",
            "address": "ТЦ \"Серебряный город\", ул. 8 Марта, д. 32",
            "brand": "no",
            "latitude": "57.005529",
            "longitude": "40.985302",
            "school": "yes",
            "phone": " "
        },
        {
            "city": "Ижевск",
            "name": "Магазин \"Магия детства\"",
            "address": "ТРК \"Талисман\", ул. Холмогорова, д. 11",
            "brand": "no",
            "latitude": "56.876904",
            "longitude": "53.204412",
            "pulka": "yes",
            "school": "yes",
            "life": "yes",
            "phone": " "
        },
        {
            "city": "Ижевск",
            "name": "Магазин \"De Salitto\"",
            "address": "ТЦ \"Аксион\", ул. Карла Маркса, д. 191",
            "brand": "no",
            "latitude": "56.847553",
            "longitude": "53.202920",
            "school": "yes",
            "phone": " "
        },
        {
            "city": "Избербаш",
            "name": "Магазин «Krytik»",
            "address": "ул. Гамидова, д. 65",
            "brand": "no",
            "latitude": "42.560872",
            "longitude": "47.872856",
            "pulka": "yes",
            "school": "yes",
            "life": "yes",
            "phone": " "
        },
        {
            "city": "Иркутск",
            "name": "Магазин \"Александр\"",
            "address": "ТЦ \"КомсоМолл\", ул. Верхняя набережная, д. 10",
            "brand": "no",
            "latitude": "52.267653",
            "longitude": "104.289140",
            "pulka": "yes",
            "school": "yes",
            "phone": " "
        },
        {
            "city": "Иркутск",
            "name": "Магазин \"Александр\"",
            "address": "ТЦ \"Сильвер Молл\", ул. Сергеева, д. 3",
            "brand": "no",
            "latitude": "52.265134",
            "longitude": "104.223033",
            "pulka": "yes",
            "school": "yes",
            "phone": " "
        },
        {
            "city": "Иркутск",
            "name": "Магазин \"Александр\"",
            "address": "ул. Александра Невского, д. 97/2",
            "brand": "no",
            "latitude": "52.267829",
            "longitude": "104.315200",
            "pulka": "yes",
            "school": "yes",
            "phone": " "
        },
        {
            "city": "Иркутск",
            "name": "Магазин \"Александр\"",
            "address": "ул. Дзержинского, д. 13",
            "brand": "no",
            "latitude": "52.279677",
            "longitude": "104.288179",
            "pulka": "yes",
            "school": "yes",
            "phone": " "
        },
        {
            "city": "Иркутск",
            "name": "Магазин \"Мишель\"",
            "address": "ул. Партизанская, д. 112/4",
            "brand": "no",
            "latitude": "52.266798",
            "longitude": "104.311598",
            "pulka": "yes",
            "ceremony": "yes",
            "school": "yes",
            "life": "yes",
            "phone": " "
        },
        {
            "city": "Истра",
            "name": "Магазин \"Bazar Kids\"",
            "address": "ТЦ \"Истра Сити\", ул. 9-ой Гвардейской Дивизии, д. 9",
            "brand": "no",
            "latitude": "55.913424",
            "longitude": "36.864811",
            "school": "yes",
            "phone": " "
        },
        {
            "city": "Казань",
            "name": "Магазин \"Silver Spoon\"",
            "address": "ГТРК \"Корстон\", ул. Ершова, д. 1А, 2 этаж",
            "brand": "no",
            "latitude": "55.793900",
            "longitude": "49.149506",
            "pulka": "yes",
            "school": "yes",
            "phone": " "
        },
        {
            "city": "Казань",
            "name": "\"СТОКМАНН\"",
            "address": "ул. Пушкина, д. 2",
            "brand": "no",
            "latitude": "55.786100",
            "longitude": "49.121479",
            "pulka": "yes",
            "ceremony": "yes",
            "school": "yes",
            "phone": " "
        },
        {
            "city": "Калининград",
            "name": "Магазин \"Peppi\"",
            "address": "ТЦ \"Европа\", ул. Театральная, д. 40",
            "brand": "no",
            "latitude": "54.718790",
            "longitude": "20.495396",
            "pulka": "yes",
            "school": "yes",
            "life": "yes",
            "phone": " "
        },
        {
            "city": "Каспийск",
            "name": "Магазин \"Детский стиль\"",
            "address": "ул. Назарова, д. 6",
            "brand": "no",
            "latitude": "42.886295",
            "longitude": "47.636186",
            "school": "yes",
            "phone": " "
        },
        {
            "city": "Кемерово",
            "name": "Магазин \"Модный ребенок\"",
            "address": "ТРК \"Променад\", пр-т Ленина, д. 59А",
            "brand": "no",
            "latitude": "55.343614",
            "longitude": "86.095309",
            "school": "yes",
            "phone": " "
        },
        {
            "city": "Кемерово",
            "name": "Магазин \"Модный ребенок\"",
            "address": "ТРК \"Променад\", пр-т Химиков, д. 39",
            "brand": "no",
            "latitude": "55.343968",
            "longitude": "86.181332",
            "school": "yes",
            "phone": " "
        },
        {
            "city": "Кизилюрт",
            "name": "Магазин \"Мир детства\"",
            "address": "ул. Г. Цаyesса, д. 58",
            "brand": "no",
            "latitude": "43.197329",
            "longitude": "46.875511",
            "school": "yes",
            "phone": " "
        },
        {
            "city": "Кизляр",
            "name": "Магазин \"Bebe Chokolat\"",
            "address": "ул. 40 лет yesгестана д. 2/2",
            "brand": "no",
            "latitude": "43.838953",
            "longitude": "46.729499",
            "school": "yes",
            "phone": " "
        },
        {
            "city": "Киржач",
            "name": "Магазин \"Школьник\"",
            "address": "ул. Гагарина, д. 15А",
            "brand": "no",
            "latitude": "56.159604",
            "longitude": "38.867434",
            "school": "yes",
            "life": "yes",
            "phone": " "
        },
        {
            "city": "Котельники",
            "name": "ТК \"OUTLET VILLAGE BELAYA DACHA\"",
            "address": "Новорязанское шоссе, д. 8",
            "brand": "yes",
            "latitude": "55.661176",
            "longitude": "37.880312",
            "pulka": "yes",
            "school": "yes",
            "phone": "+7 (985) 865-79-47"
        },
        {
            "city": "Котельники",
            "name": "\"СТОКМАНН\"",
            "address": "ТЦ \"МЕГА\", г. Котельники, 1-й Покровский проезд, д. 5",
            "brand": "no",
            "latitude": "55.653294",
            "longitude": "37.844208",
            "pulka": "yes",
            "ceremony": "yes",
            "school": "yes",
            "phone": " "
        },
        {
            "city": "Красногорск",
            "name": "Магазин \"Франтик и Фифочка\"",
            "address": "ВГК «Снеж.Ком», мкр Павшинская Пойма, Красногорский б-р, д. 4",
            "brand": "no",
            "latitude": "55.815848",
            "longitude": "37.362729",
            "pulka": "yes",
            "school": "yes",
            "life": "yes",
            "phone": " "
        },
        {
            "city": "Красногорск",
            "name": "Магазин \"Kanz\"",
            "address": "ТЦ \"Вегас Крокус Сити\", г. Красногорск, ул. Международная, д. 12, МКАД, 66-й км",
            "brand": "no",
            "latitude": "55.821032",
            "longitude": "37.386202",
            "pulka": "yes",
            "phone": " "
        },
        {
            "city": "Красногорск",
            "name": "Магазин \"Pitersoni\"",
            "address": "ТЦ \"Вегас Крокус Сити\", г. Красногорск, ул. Международная, д. 12, МКАД, 66-й км",
            "brand": "no",
            "latitude": "55.821032",
            "longitude": "37.386202",
            "pulka": "yes",
            "phone": " "
        },
        {
            "city": "Красноyesр",
            "name": "ТЦ \"Красная площадь\"",
            "address": "ул. Дзержинского, д. 100, 3 этаж",
            "brand": "yes",
            "latitude": "45.102209",
            "longitude": "38.983847",
            "pulka": "yes",
            "ceremony": "yes",
            "school": "yes",
            "life": "yes",
            "phone": "+7(960)497-09-79"
        },
        {
            "city": "Красноyesр",
            "name": "Магазин \"Бэби Бум\"",
            "address": "Каневская ст-ца, пл. Революции, д. 3",
            "brand": "no",
            "latitude": "46.085017",
            "longitude": "38.973840",
            "school": "yes",
            "phone": " "
        },
        {
            "city": "Красноyesр",
            "name": "Магазин \"Бэби Бум\"",
            "address": "Ленинградская ст-ца, Базарный пер, д. 22",
            "brand": "no",
            "latitude": "46.324654",
            "longitude": "39.386319",
            "school": "yes",
            "phone": " "
        },
        {
            "city": "Красноyesр",
            "name": "Магазин \"Андерсен\"",
            "address": "ТЦ \"Галерея\", ул. Головатого, д. 313",
            "brand": "no",
            "latitude": "45.039515",
            "longitude": "38.974424",
            "pulka": "yes",
            "ceremony": "yes",
            "school": "yes",
            "life": "yes",
            "phone": " "
        },
        {
            "city": "Красноyesр",
            "name": "\"СТОКМАНН\"",
            "address": "ТЦ \"ОЗ Молл\", жилой массив Пашковский, ул. Крылатая, д. 2",
            "brand": "no",
            "latitude": "45.011446",
            "longitude": "39.122529",
            "pulka": "yes",
            "ceremony": "yes",
            "phone": " "
        },
        {
            "city": "Кубинка",
            "name": "Магазин \"Карапуз\"",
            "address": "Наро-Фоминское ш., д. 36Б",
            "brand": "no",
            "latitude": "55.578615",
            "longitude": "36.692739",
            "school": "yes",
            "life": "yes",
            "phone": " "
        },
        {
            "city": "Курск",
            "name": "Магазин \"Курский ЦУМ\"",
            "address": "ул. Ленина, д. 12",
            "brand": "no",
            "latitude": "51.733675",
            "longitude": "36.192503",
            "pulka": "yes",
            "school": "yes",
            "phone": " "
        },
        {
            "city": "Курск",
            "name": "Магазин \"ELSY\"",
            "address": "ТРК \"Мега Грин\", ул. Карла Маркса, д. 68",
            "brand": "no",
            "latitude": "51.762129",
            "longitude": "36.184553",
            "pulka": "yes",
            "ceremony": "yes",
            "school": "yes",
            "life": "yes",
            "phone": " "
        },
        {
            "city": "Курск",
            "name": "Магазин \"ELSY\"",
            "address": "ТРК \"Централ парк\", ул. Карла Маркса, д. 6",
            "brand": "no",
            "latitude": "51.748950",
            "longitude": "36.191721",
            "pulka": "yes",
            "ceremony": "yes",
            "school": "yes",
            "life": "yes",
            "phone": " "
        },
        {
            "city": "Липецк",
            "name": "Магазин \"НаследникЪ\"",
            "address": "пр-т Победы, д. 71",
            "brand": "no",
            "latitude": "52.590885",
            "longitude": "39.559541",
            "school": "yes",
            "phone": " "
        },
        {
            "city": "Липецк",
            "name": "Магазин \"НаследникЪ Выжанова\"",
            "address": "ул. Советская, д. 36",
            "brand": "no",
            "latitude": "52.604352",
            "longitude": "39.581945",
            "school": "yes",
            "phone": " "
        },
        {
            "city": "Липецк",
            "name": "Магазин \"НаследникЪ Выжанова\"",
            "address": "ТРЦ \"Ривьера\", ул. Катукова, д. 51",
            "brand": "no",
            "latitude": "52.592357",
            "longitude": "39.504331",
            "school": "yes",
            "phone": " "
        },
        {
            "city": "Махачкала",
            "name": "ТРЦ \"Этажи\"",
            "address": "пр-т Имама Шамиля, д. 61",
            "brand": "yes",
            "latitude": "42.959042",
            "longitude": "47.506137",
            "pulka": "yes",
            "ceremony": "yes",
            "school": "yes",
            "life": "yes",
            "phone": "+7(988) 291-22-11"
        },
        {
            "city": "Махачкала",
            "name": "Магазин \"Silver Spoon\"",
            "address": "ул. Абубакарова, д. 89",
            "brand": "yes",
            "latitude": "42.973199",
            "longitude": " 47.495681",
            "pulka": "yes",
            "ceremony": "yes",
            "school": "yes",
            "life": "yes",
            "phone": " "
        },
        {
            "city": "Махачкала",
            "name": "Магазин \"Чудо - Чадо\"",
            "address": "пр-т Акушинского, д. 34Д",
            "brand": "no",
            "latitude": "42.980475",
            "longitude": "47.455939",
            "pulka": "yes",
            "ceremony": "yes",
            "school": "yes",
            "life": "yes",
            "phone": " "
        },
        {
            "city": "Махачкала",
            "name": "Магазин \"Чудо - Чадо\"",
            "address": "ул. yesхаyesева, д. 92, 1 этаж",
            "brand": "no",
            "latitude": "42.973437",
            "longitude": "47.498376",
            "pulka": "yes",
            "ceremony": "yes",
            "school": "yes",
            "life": "yes",
            "phone": " "
        },
        {
            "city": "Махачкала",
            "name": "Магазин \"Моyes ДЕТИ\"",
            "address": "ТЦ \"yesгСнаб\", ул. Ирчи Казака, д. 31Б, маг. 24",
            "brand": "no",
            "latitude": "42.965230",
            "longitude": "47.505239",
            "pulka": "yes",
            "ceremony": "yes",
            "school": "yes",
            "life": "yes",
            "phone": " "
        },
        {
            "city": "Махачкала",
            "name": "Магазин \"Моyes ДЕТИ\"",
            "address": "ТЦ \"Колизей\", ул. Ирчи Казака, д. 41И",
            "brand": "no",
            "latitude": "42.953063",
            "longitude": "47.521534",
            "pulka": "yes",
            "ceremony": "yes",
            "school": "yes",
            "life": "yes",
            "phone": " "
        },
        {
            "city": "Москва",
            "name": "ТРЦ \"Авеню\"",
            "address": "пр-т Вернадского, д. 86А, 3 этаж",
            "brand": "yes",
            "latitude": "55.663019",
            "longitude": "37.480993",
            "pulka": "yes",
            "ceremony": "yes",
            "school": "yes",
            "life": "yes",
            "phone": "+7(910)418-82-27"
        },
        {
            "city": "Москва",
            "name": "ТРЦ \"Хорошо!\"",
            "address": "Хорошевское шоссе, д. 27",
            "brand": "yes",
            "latitude": "55.777099",
            "longitude": "37.523707",
            "pulka": "yes",
            "ceremony": "yes",
            "school": "yes",
            "life": "yes",
            "phone": "+7(495)123-53-56"
        },
        {
            "city": "Москва",
            "name": "ТЦ \"THE OUTLET\"",
            "address": "Красногорский район, вблизи дер. Воронки 2\\08 СКОРО ОТКРЫТИЕ",
            "brand": "yes",
            "latitude": "55.792716",
            "longitude": "37.265091",
            "pulka": "yes",
            "ceremony": "yes",
            "school": "yes",
            "life": "yes",
            "phone": " "
        },
        {
            "city": "Москва",
            "name": "ТРЦ \"Ривьера\"",
            "address": "ул. Автозаводская, д. 18",
            "brand": "yes",
            "latitude": "55.705452",
            "longitude": "37.637749",
            "pulka": "yes",
            "ceremony": "yes",
            "school": "yes",
            "life": "yes",
            "phone": "+7(916)941-52-89"
        },
        {
            "city": "Москва",
            "name": "ТРЦ \"Саларис\"",
            "address": "Киевское шоссе, 23-й километр, д. 1, 2 этаж",
            "brand": "yes",
            "latitude": "55.623788",
            "longitude": "37.422027",
            "pulka": "yes",
            "ceremony": "yes",
            "life": "yes",
            "phone": "+7 (916) 280-02-13"
        },
        {
            "city": "Москва",
            "name": "Магазин \"Детская одежyes\"",
            "address": "ТЦ \"Большая Медведица\", Студеный пр-д, д. 7А, 2 этаж, пав. 50/51",
            "brand": "no",
            "latitude": "55.893692",
            "longitude": "37.662659",
            "pulka": "yes",
            "ceremony": "yes",
            "school": "yes",
            "life": "yes",
            "phone": " "
        },
        {
            "city": "Москва",
            "name": "Магазин \"Kanz\"",
            "address": "ТЦ \"Мега Теплый Стан\", г. Москва, п. Сосенское, Калужское шоссе 21 км (или 41 км МКАД)",
            "brand": "no",
            "latitude": "55.604483",
            "longitude": "37.489526",
            "school": "yes",
            "phone": " "
        },
        {
            "city": "Москва",
            "name": "Магазин \"Kanz\"",
            "address": "ТЦ \"Фестиваль\", Мичуринский пр-т, Олимпийская Деревня, д. 3, корп. 1",
            "brand": "no",
            "latitude": "55.677951",
            "longitude": "37.466637",
            "school": "yes",
            "phone": " "
        },
        {
            "city": "Москва",
            "name": "Магазин \"Babyland\"",
            "address": "Мичуринский пр-т, д. 22/1",
            "brand": "no",
            "latitude": "55.701298",
            "longitude": "37.503837",
            "school": "yes",
            "phone": " "
        },
        {
            "city": "Москва",
            "name": "ТЦ \"Совенок\"",
            "address": "ул. Сущёвский Вал, д. 5, стр. 9, пав. L43",
            "brand": "no",
            "latitude": "55.795499",
            "longitude": "37.593318",
            "school": "yes",
            "phone": " "
        },
        {
            "city": "Москва",
            "name": "Магазин \"Винни\"",
            "address": "ТЦ \"DREAM HOUSE\", д. Барвиха, д. 85/1",
            "brand": "no",
            "latitude": "55.738536",
            "longitude": "37.270391",
            "school": "yes",
            "life": "yes",
            "phone": " "
        },
        {
            "city": "Москва",
            "name": "Магазин \"Винни\"",
            "address": "ТЦ \"ЮНИМОЛ\", г. Красногорск, Новорижское шоссе, 7-й км, стр. 1",
            "brand": "no",
            "latitude": "55.799912",
            "longitude": "37.279959",
            "school": "yes",
            "life": "yes",
            "phone": " "
        },
        {
            "city": "Москва",
            "name": "Магазин \"Винни\"",
            "address": "Рублевское ш., д. 20, корп. 1",
            "brand": "no",
            "latitude": "55.742433",
            "longitude": "37.429869",
            "school": "yes",
            "life": "yes",
            "phone": " "
        },
        {
            "city": "Москва",
            "name": "Магазин \"Заботливая мама\"",
            "address": "ул. Родионовская, д. 12",
            "brand": "no",
            "latitude": "55.893854",
            "longitude": "37.389607",
            "school": "yes",
            "phone": " "
        },
        {
            "city": "Москва",
            "name": "Магазин \"Silver Spoon\"",
            "address": "ТЦ \"Европейский\", пл. Киевского Вокзала, д. 2, 4 этаж",
            "brand": "no",
            "latitude": "55.744632",
            "longitude": "37.566072",
            "pulka": "yes",
            "ceremony": "yes",
            "school": "yes",
            "life": "yes",
            "phone": " "
        },
        {
            "city": "Москва",
            "name": "Магазин \"Kanz\"",
            "address": "ТЦ \"Авиапарк\", ул. Ходынский бульвар, д. 4",
            "brand": "no",
            "latitude": "55.790231",
            "longitude": "37.531280",
            "pulka": "yes",
            "school": "yes",
            "phone": " "
        },
        {
            "city": "Москва",
            "name": "ТЦ \"Аэробус\"",
            "address": "Варшавское шоссе, д. 95, корп. 1, пав. 32",
            "brand": "no",
            "latitude": "55.640274",
            "longitude": "37.621938",
            "school": "yes",
            "life": "yes",
            "phone": " "
        },
        {
            "city": "Москва",
            "name": "Магазин \"Ernikids\"",
            "address": "ТЦ \"Остров Мечты\", Милютинский пер., д. 12",
            "brand": "no",
            "latitude": "55.762905",
            "longitude": "37.632260",
            "pulka": "yes",
            "school": "yes",
            "life": "yes",
            "phone": " "
        },
        {
            "city": "Москва",
            "name": "Магазин \"Модный ребенок\"",
            "address": "ТЦ \"Калужский\", ул. Профсоюзная, д. 61А",
            "brand": "no",
            "latitude": "55.656031",
            "longitude": "37.541503",
            "school": "yes",
            "phone": " "
        },
        {
            "city": "Москва",
            "name": "Магазин \"Модный ребенок\"",
            "address": "ТЦ \"Персей для детей\", ул. Малая Семеновская, д. 28, пав. № 48",
            "brand": "no",
            "latitude": "55.784951",
            "longitude": "37.715821",
            "pulka": "yes",
            "school": "yes",
            "life": "yes",
            "phone": " "
        },
        {
            "city": "Москва",
            "name": "Магазин \"Модный ребенок\"",
            "address": "ТЦ \"Персей\", ул. Куликовская, д. 3",
            "brand": "no",
            "latitude": "55.570711",
            "longitude": "37.564707",
            "pulka": "yes",
            "school": "yes",
            "life": "yes",
            "phone": " "
        },
        {
            "city": "Москва",
            "name": "Магазин \"Silver Spoon\"",
            "address": "ТЦ \"Columbus\", ул. Кировоградская, д. 13А СКОРО ОТКРЫТИЕ",
            "brand": "yes",
            "latitude": "55.612182",
            "longitude": "37.607026",
            "pulka": "yes",
            "ceremony": "yes",
            "school": "yes",
            "life": "yes",
            "phone": " "
        },
        {
            "city": "Москва",
            "name": "Магазин Торговая компания \"Мария\"",
            "address": "Ленинский пр-т, д. 78",
            "brand": "no",
            "latitude": "55.682529",
            "longitude": "37.535996",
            "school": "yes",
            "phone": " "
        },
        {
            "city": "Москва",
            "name": "Магазин \"Bosco Bambino\"",
            "address": "ГУМ ТК, Красная Площадь, д. 3",
            "brand": "no",
            "latitude": "55.754638",
            "longitude": "37.621633",
            "school": "yes",
            "life": "yes",
            "phone": " "
        },
        {
            "city": "Москва",
            "name": "Магазин \"yesниэль\"",
            "address": "ДЦМ Театральный проезд, д. 5 стр. 1",
            "brand": "no",
            "latitude": "55.760038",
            "longitude": "37.625846",
            "school": "yes",
            "phone": " "
        },
        {
            "city": "Москва",
            "name": "Магазин \"yesниэль\"",
            "address": "Ленинский пр-т, д. 35",
            "brand": "no",
            "latitude": "55.711574",
            "longitude": "37.587407",
            "school": "yes",
            "phone": " "
        },
        {
            "city": "Москва",
            "name": "ТЦ \"Персей\"",
            "address": "Ленинградское ш., д. 58, корп. 26, пав. № 170",
            "brand": "no",
            "latitude": "55.841705",
            "longitude": "37.484855",
            "school": "yes",
            "phone": " "
        },
        {
            "city": "Москва",
            "name": "Магазин \"Диномама.Ру\"",
            "address": "ул. Малая Филевская, д. 8, корп. 1",
            "brand": "no",
            "latitude": "55.739083",
            "longitude": "37.476061",
            "pulka": "yes",
            "phone": " "
        },
        {
            "city": "Москва",
            "name": "Магазин \"Непосеyes\"",
            "address": "ТЦ \"Галерея Неглинная\", Трубная площадь, д. 2",
            "brand": "no",
            "latitude": "55.766491",
            "longitude": "37.622333",
            "school": "yes",
            "phone": " "
        },
        {
            "city": "Москва",
            "name": "Магазин \"Sanetta\"",
            "address": "ТЦ \"ЦДМ\", ул. Театральный проезд, д. 5",
            "brand": "no",
            "latitude": "55.760195",
            "longitude": "37.624651",
            "school": "yes",
            "phone": " "
        },
        {
            "city": "Москва",
            "name": "Магазин \"Sanetta\"",
            "address": "Ленинский пр-т, д. 60/2",
            "brand": "no",
            "latitude": "55.695829",
            "longitude": "37.557682",
            "school": "yes",
            "phone": " "
        },
        {
            "city": "Москва",
            "name": "Магазин \"Юла\"",
            "address": "ТЦ \"Облака\", Ореховый б-р, д. 22А, этаж 3",
            "brand": "no",
            "latitude": "55.612045",
            "longitude": "37.732718",
            "school": "yes",
            "phone": " "
        },
        {
            "city": "Москва",
            "name": "\"СТОКМАНН\"",
            "address": "ТЦ \"Авиапарк\", Ходынский б-р., д. 4",
            "brand": "no",
            "latitude": "55.790231",
            "longitude": "37.531280",
            "pulka": "yes",
            "ceremony": "yes",
            "school": "yes",
            "phone": " "
        },
        {
            "city": "Москва",
            "name": "\"СТОКМАНН\"",
            "address": "ТРЦ \"Европолис\" Ростокино, пр-т Мира, д. 211, корп. 2",
            "brand": "no",
            "latitude": "55.845855",
            "longitude": "37.662093",
            "pulka": "yes",
            "ceremony": "yes",
            "school": "yes",
            "phone": " "
        },
        {
            "city": "Москва",
            "name": "\"СТОКМАНН\"",
            "address": "ТЦ \"МЕГА\", п. Сосенское, Калужское шоссе 21 км (или 41 км МКАД)",
            "brand": "no",
            "latitude": "55.602891",
            "longitude": "37.491044",
            "ceremony": "yes",
            "phone": " "
        },
        {
            "city": "Москва",
            "name": "\"СТОКМАНН\"",
            "address": "ТЦ \"Метрополис\", Ленинградское ш., 16А, стр. 4",
            "brand": "no",
            "latitude": "55.823211",
            "longitude": "37.497468",
            "ceremony": "yes",
            "phone": " "
        },
        {
            "city": "Москва",
            "name": "\"СТОКМАНН\"",
            "address": "Торговая галерея \"Модный сезон\", ул. Охотный ряд, д. 2",
            "brand": "no",
            "latitude": "55.757131",
            "longitude": "37.617114",
            "pulka": "yes",
            "ceremony": "yes",
            "school": "yes",
            "phone": " "
        },
        {
            "city": "Москва",
            "name": "Магазин \"MimiModa\"",
            "address": "ТЦ \"МЕГА\", п. Сосенское, Калужское шоссе 21 км (или 41 км МКАД)",
            "brand": "no",
            "latitude": "55.602891",
            "longitude": "37.491044",
            "ceremony": "yes",
            "school": "yes",
            "phone": " "
        },
        {
            "city": "Москва",
            "name": "Магазин \"ХЦ\"",
            "address": "ТЦ \"Золотой Вавилон\", Мира пр-кт, д.211, корп.2",
            "brand": "no",
            "latitude": "55.845991",
            "longitude": "37.661785",
            "school": "yes",
            "phone": " "
        },
        {
            "city": "Москва",
            "name": "Магазин \"ХЦ\"",
            "address": "ТЦ \"Лейпциг\", ул. Академика Варги, д. 8, корп. 1",
            "brand": "no",
            "latitude": "55.630223",
            "longitude": "37.474507",
            "school": "yes",
            "phone": " "
        },
        {
            "city": "Москва",
            "name": "Магазин \"ХЦ\"",
            "address": "ТЦ \"Рублевский\", Рублёвское шоссе, д. 48/1",
            "brand": "no",
            "latitude": "55.754000",
            "longitude": "37.405920",
            "school": "yes",
            "phone": " "
        },
        {
            "city": "Москва",
            "name": "Магазин \"ХЦ\"",
            "address": "ТЦ \"Бухарест\", ул. Каховка, д. 27",
            "brand": "no",
            "latitude": "55.655453",
            "longitude": "37.572010",
            "school": "yes",
            "phone": " "
        },
        {
            "city": "Москва",
            "name": "Магазин \"ХЦ\"",
            "address": "ТЦ \"Кузьминки\", ул. Зеленодольская, д. 40",
            "brand": "no",
            "latitude": "55.704098",
            "longitude": "37.765785",
            "school": "yes",
            "phone": " "
        },
        {
            "city": "Москва",
            "name": "ТЦ \"Лучик\"",
            "address": "ТЦ \"Лучик\", Алтуфьевское шоссе, д. 27, пав. 27-28",
            "brand": "no",
            "latitude": "55.856442",
            "longitude": "37.582817",
            "school": "yes",
            "phone": " "
        },
        {
            "city": "Москва",
            "name": "Магазин \"Silver Spoon\"",
            "address": "ТЦ \"Европейский\", пл. Киевского Вокзала, д. 2, 4 этаж ",
            "brand": "no",
            "latitude": "55.744632",
            "longitude": "37.566072",
            "school": "yes",
            "phone": " "
        },
        {
            "city": "Москва",
            "name": "Магазин \"Мой первый бал\"",
            "address": "ТЦ \"Савеловский\", ул. Сущёвский Вал, д. 5, стр. 9, пав. М18",
            "brand": "no",
            "latitude": "55.795499",
            "longitude": "37.593318",
            "school": "yes",
            "phone": " "
        },
        {
            "city": "Москва",
            "name": "Магазин \"EMPORIO 88\"",
            "address": "ТЦ \"ЦДМ\", Театральный проезд, д. 5, стр. 1",
            "brand": "no",
            "latitude": "55.760038",
            "longitude": "37.625846",
            "school": "yes",
            "life": "yes",
            "phone": " "
        },
        {
            "city": "Московская область",
            "name": "Магазин \"Sweet Glamour\"",
            "address": "ТЦ \"Отраyes\", 7-й км Пятницкого шоссе, владение 2",
            "brand": "no",
            "latitude": "55.876274",
            "longitude": "37.331549",
            "school": "yes",
            "phone": " "
        },
        {
            "city": "Московская область",
            "name": "Магазин \"Франтик и Фифочка\"",
            "address": "ТЦ \"Павлово Подворье\", Истринский р-н, с/пос. Павлово-Слободское, д. Новинки, д. 115",
            "brand": "no",
            "latitude": "55.810447",
            "longitude": "37.128426",
            "school": "yes",
            "phone": " "
        },
        {
            "city": "Московская область",
            "name": "Магазин \"Франтик и Фифочка\"",
            "address": "ТЦ \"Pokrovsky\", городской округ Истра, д. Покровское, ул. Центральная, д. 27",
            "brand": "no",
            "latitude": "55.810653",
            "longitude": "37.013698",
            "school": "yes",
            "phone": " "
        },
        {
            "city": "Московская область",
            "name": "Магазин \"Франтик и Фифочка\"",
            "address": "ТЦ \"РигаМолл\", Новорижское шоссе, 23-й километр, вл2с1",
            "brand": "no",
            "latitude": "55.799699",
            "longitude": "37.273967",
            "school": "yes",
            "phone": " "
        },
        {
            "city": "Мурманск",
            "name": "Магазин \"Десалитто\"",
            "address": "ТЦ \"Мурманск Молл\", пр-т Ленина, д. 34",
            "brand": "no",
            "latitude": "68.956985",
            "longitude": "33.067489",
            "school": "yes",
            "phone": " "
        },
        {
            "city": "Набережные Челны",
            "name": "Магазин \"junior\"",
            "address": "ТЦ \"Палитра\", пр-т Мира, д. 49А, 2 этаж",
            "brand": "no",
            "latitude": "55.739792",
            "longitude": "52.405414",
            "pulka": "yes",
            "school": "yes",
            "phone": " "
        },
        {
            "city": "Набережные Челны",
            "name": "Магазин \"Акуломания\"",
            "address": "ТЦ \"Омега\", пр-т Сююмбике, д. 2/19, 2 этаж",
            "brand": "no",
            "latitude": "55.730705",
            "longitude": "52.392541",
            "school": "yes",
            "phone": " "
        },
        {
            "city": "Набережные Челны",
            "name": "Магазин \"Акуломания\"",
            "address": "ТЦ \"Палитра\", пр-т Мира, д. 49А, 2 этаж",
            "brand": "no",
            "latitude": "55.739792",
            "longitude": "52.405414",
            "school": "yes",
            "phone": " "
        },
        {
            "city": "Назрань",
            "name": "Магазин \"Майораль\"",
            "address": "ТЦ \"КОВЧЕГ\", ул. Картоева, д. 154А",
            "brand": "no",
            "latitude": "43.223303",
            "longitude": "44.749585",
            "school": "yes",
            "phone": " "
        },
        {
            "city": "Нальчик",
            "name": "Магазин \"Плаnoа Детства\"",
            "address": "ул. Тарчокова, д. 71",
            "brand": "no",
            "latitude": "43.480955",
            "longitude": "43.570447",
            "school": "yes",
            "phone": " "
        },
        {
            "city": "Наро-Фоминск",
            "name": "Магазин \"Денди\"",
            "address": "ТЦ \"Оранжевое Небо\", ул. Маршала Жукова, д. 13Б",
            "brand": "no",
            "latitude": "55.382053",
            "longitude": "36.720443",
            "school": "yes",
            "life": "yes",
            "phone": " "
        },
        {
            "city": "Находка",
            "name": "Магазин «Premiere» for kids ",
            "address": "ТЦ \"Галерея\", ул. Проспект Мира, д. 1П, стр. 2",
            "brand": "no",
            "latitude": "42.828685",
            "longitude": "132.895748",
            "pulka": "yes",
            "school": "yes",
            "life": "yes",
            "phone": " "
        },
        {
            "city": "Находка",
            "name": "Магазин \"Fashion Kids\"",
            "address": "ул. Владивостокская, д. 28",
            "brand": "no",
            "latitude": "42.812312",
            "longitude": "132.865556",
            "school": "yes",
            "phone": " "
        },
        {
            "city": "Нижневартовск",
            "name": "Магазин \"Кенгуру\"",
            "address": "ТЦ \"Космос\", ул. Ленина д. 17А",
            "brand": "no",
            "latitude": "60.936534",
            "longitude": "76.585214",
            "pulka": "yes",
            "school": "yes",
            "life": "yes",
            "phone": " "
        },
        {
            "city": "Нижний Новгород",
            "name": "Магазин \"Ева\"",
            "address": "ТЦ \"Этажи\", ул. Белинского, д. 63",
            "brand": "no",
            "latitude": "56.316903",
            "longitude": "44.020494",
            "school": "yes",
            "phone": " "
        },
        {
            "city": "Нижний Новгород",
            "name": "Магазин \"Мon Mary\"",
            "address": "ТЦ \"Фантастика\", ул. Родионова, д. 187",
            "brand": "no",
            "latitude": "56.307631",
            "longitude": "44.073908",
            "ceremony": "yes",
            "school": "yes",
            "phone": " "
        },
        {
            "city": "Нижний Тагил",
            "name": "Магазин \"Gulliver\"",
            "address": "ТЦ \"Александровский Пассаж\", пр-т Ленина, д. 22",
            "brand": "no",
            "latitude": "57.908170",
            "longitude": "59.959196",
            "school": "yes",
            "phone": " "
        },
        {
            "city": "Нижний Тагил",
            "name": "Магазин \"Киндер Моyes\"",
            "address": "пр-т Мира, д. 15/ ул. Строителей, д. 10",
            "brand": "no",
            "latitude": "57.908743",
            "longitude": "59.981796",
            "school": "yes",
            "phone": " "
        },
        {
            "city": "Новороссийск",
            "name": "Магазин \"Primigi\"",
            "address": "ТЦ \"Красная Площадь\", Анапское шоссе, д. 2",
            "brand": "no",
            "latitude": "44.725225",
            "longitude": "37.762982",
            "pulka": "yes",
            "school": "yes",
            "phone": " "
        },
        {
            "city": "Новосибирск",
            "name": "Маазин «Mona Lisa»",
            "address": "ул. Cоветская, д. 35",
            "brand": "no",
            "latitude": "55.030179",
            "longitude": "82.915992",
            "school": "yes",
            "phone": " "
        },
        {
            "city": "Новосибирск",
            "name": "Магазин \"Красный 6\"",
            "address": "Красный проспект, д. 6",
            "brand": "no",
            "latitude": "55.017823",
            "longitude": "82.924176",
            "school": "yes",
            "phone": " "
        },
        {
            "city": "Новосибирск",
            "name": "Магазин \"Primigi\"",
            "address": "ТЦ \"Аура\", ул. Военная, д. 5",
            "brand": "no",
            "latitude": "55.028718",
            "longitude": "82.936653",
            "pulka": "yes",
            "ceremony": "yes",
            "school": "yes",
            "phone": " "
        },
        {
            "city": "Новосибирск",
            "name": "Магазин \"MimiModa\"",
            "address": "ТЦ \"Галерея\", ул. Гоголя, д. 13",
            "brand": "no",
            "latitude": "55.043721",
            "longitude": "82.922334",
            "pulka": "yes",
            "ceremony": "yes",
            "school": "yes",
            "phone": " "
        },
        {
            "city": "Ногинск",
            "name": "Магазин \"TopKids\"",
            "address": "ул. Соборная, д. 12",
            "brand": "no",
            "latitude": "55.853213",
            "longitude": "38.441938",
            "school": "yes",
            "life": "yes",
            "phone": " "
        },
        {
            "city": "Ноябрьск",
            "name": "Магазин \"Ноль плюс\"",
            "address": "ТЦ \"Центральный\", ул. Ленина, д. 22А, 2 этаж",
            "brand": "no",
            "latitude": "63.196366",
            "longitude": "75.442287",
            "ceremony": "yes",
            "school": "yes",
            "life": "yes",
            "phone": " "
        },
        {
            "city": "Обнинск",
            "name": "Магазин \"Аист\"",
            "address": "ул. Гагарина, д. 5",
            "brand": "no",
            "latitude": "55.117952",
            "longitude": "36.592684",
            "school": "yes",
            "phone": " "
        },
        {
            "city": "Обнинск",
            "name": "Магазин \"Аист\"",
            "address": "ТЦ \"Триумф Плаза\", пр. Маркса, д. 45",
            "brand": "no",
            "latitude": "55.116897",
            "longitude": "36.593268",
            "school": "yes",
            "phone": " "
        },
        {
            "city": "Одинцово",
            "name": "Магазин \"Sanetta\"",
            "address": "ТЦ \"Одинцовский Пассаж\", ул. Привокзальная, д. 1А",
            "brand": "no",
            "latitude": "55.671321",
            "longitude": "37.276859",
            "pulka": "yes",
            "ceremony": "yes",
            "school": "yes",
            "life": "yes",
            "phone": " "
        },
        {
            "city": "Октябрьский",
            "name": "Магазин \"EURO KIDS\"",
            "address": "ул. Горького, д. 30",
            "brand": "no",
            "latitude": "54.484629",
            "longitude": "53.463459",
            "pulka": "yes",
            "school": "yes",
            "life": "yes",
            "phone": " "
        },
        {
            "city": "Орел",
            "name": "Магазин \"Галерея детской одежды\"",
            "address": "ул. Гуртьева, д. 2",
            "brand": "no",
            "latitude": "52.974210",
            "longitude": "36.068275",
            "school": "yes",
            "phone": " "
        },
        {
            "city": "Оренбург",
            "name": "ТЦ \"Армаyes 2\"",
            "address": "Нежинское шоссе, д. 2А, 2 этаж",
            "brand": "yes",
            "latitude": "51.775851",
            "longitude": "55.198402",
            "pulka": "yes",
            "ceremony": "yes",
            "school": "yes",
            "life": "yes",
            "phone": " "
        },
        {
            "city": "Оренбург",
            "name": "Магазин \"Непосеyes\"",
            "address": "ТЦ \"Север\", пр-т Дзержинского, д. 23",
            "brand": "no",
            "latitude": "51.833429",
            "longitude": "55.128827",
            "school": "yes",
            "phone": " "
        },
        {
            "city": "Оренбург",
            "name": "Магазин \"Непосеyes\"",
            "address": "ТЦ \"Армаyes\", Шарлыкское ш., д. 1/2",
            "brand": "no",
            "latitude": "51.843890",
            "longitude": "55.117706",
            "school": "yes",
            "phone": " "
        },
        {
            "city": "Орск",
            "name": "Магазин \"Bon Ton\"",
            "address": "ТЦ \"Авангард\", ул. Ленинского комсомола, д. 8А, корп. 2, секц. 39, 1 этаж",
            "brand": "no",
            "latitude": "51.229554",
            "longitude": "58.484592",
            "school": "yes",
            "phone": " "
        },
        {
            "city": "Пермь",
            "name": "Магазин \"Амадео\"",
            "address": "ул. Полины Осипенко, д. 53",
            "brand": "no",
            "latitude": "57.997541",
            "longitude": "56.253590",
            "pulka": "yes",
            "school": "yes",
            "life": "yes",
            "phone": " "
        },
        {
            "city": "Пермь",
            "name": "Магазин \"Baby Fashion\"",
            "address": "ул. Полины Осипенко, д. 53",
            "brand": "no",
            "latitude": "57.997541",
            "longitude": "56.253590",
            "pulka": "yes",
            "school": "yes",
            "life": "yes",
            "phone": " "
        },
        {
            "city": "Пермь",
            "name": "Магазин \"САМИ С УСАМИ\"",
            "address": "ул. Крисанова, д. 19",
            "brand": "no",
            "latitude": "58.007408",
            "longitude": "56.211747",
            "school": "yes",
            "phone": " "
        },
        {
            "city": "Пермь",
            "name": "Магазин \"САМИ С УСАМИ\"",
            "address": "ТЦ \"Времена гоyes\", ул. Докучаева, д. 42Б",
            "brand": "no",
            "latitude": "58.035840",
            "longitude": "56.144148",
            "school": "yes",
            "phone": " "
        },
        {
            "city": "Петропавловск-Камчатский",
            "name": "Магазин \"Stilnyashka\"",
            "address": "ТЦ \"Парус\", пр-т 50 лет Октября, д. 16/1",
            "brand": "no",
            "latitude": "53.056988",
            "longitude": "158.635050",
            "school": "yes",
            "phone": " "
        },
        {
            "city": "Пятигорск",
            "name": "Магазин \"Бумеранг\"",
            "address": "ул. 295 Стрелковой Дивизии, д. 13, корп. 2",
            "brand": "no",
            "latitude": "44.061066",
            "longitude": "43.066070",
            "school": "yes",
            "phone": " "
        },
        {
            "city": "Пятигорск",
            "name": "Магазин \"WONDERLAND\"",
            "address": "пр-т 40 лет Октября, д. 56А",
            "brand": "no",
            "latitude": "44.042686",
            "longitude": "43.063977",
            "pulka": "yes",
            "school": "yes",
            "phone": " "
        },
        {
            "city": "Республика Адыгея",
            "name": "Магазин \"Андерсен\"",
            "address": "ТЦ \"МЕГА\", Тахтамукайский р-н, аул \"Новая Адыгея\", Тургеневское ш., д. 27",
            "brand": "no",
            "latitude": "45.013084",
            "longitude": "38.929328",
            "pulka": "yes",
            "school": "yes",
            "phone": " "
        },
        {
            "city": "Реутов",
            "name": "Магазин \"Маленькие стиляги\"",
            "address": "ТЦ \"Реутов Парк\", Носовихинское шоссе, д. 45",
            "brand": "no",
            "latitude": "55.752283",
            "longitude": "37.887247",
            "school": "yes",
            "phone": " "
        },
        {
            "city": "Ростов-на-Дону",
            "name": "ТРЦ \"Золотой Вавилон\"",
            "address": "ул. Малиновского, д. 25",
            "brand": "yes",
            "latitude": "47.230505",
            "longitude": "39.610682",
            "pulka": "yes",
            "ceremony": "yes",
            "school": "yes",
            "life": "yes",
            "phone": " "
        },
        {
            "city": "Ростов-на-Дону",
            "name": "Магазин \"Андерсен\"",
            "address": "ТЦ \"Горизонт\", пр-т Нагибина, д. 32/2",
            "brand": "no",
            "latitude": "47.259770",
            "longitude": "39.720376",
            "pulka": "yes",
            "ceremony": "yes",
            "school": "yes",
            "life": "yes",
            "phone": " "
        },
        {
            "city": "Ростов-на-Дону",
            "name": "Магазин \"Андерсен\"",
            "address": "ТЦ \"МЕГАМАГ\", ул. Пойменная, д. 2А",
            "brand": "no",
            "latitude": "47.204229",
            "longitude": "39.733716",
            "pulka": "yes",
            "ceremony": "yes",
            "school": "yes",
            "phone": " "
        },
        {
            "city": "Ростов-на-Дону",
            "name": "Магазин \"Андерсен\"",
            "address": "ТЦ \"ЦУМ\", ул. Большая Садовая, д. 46",
            "brand": "no",
            "latitude": "47.219967",
            "longitude": "39.708302",
            "pulka": "yes",
            "ceremony": "yes",
            "school": "yes",
            "phone": " "
        },
        {
            "city": "Рязань",
            "name": "Магазин \"RICOSTA\"",
            "address": "ТРЦ \"Премьер\", Московское шоссе, д. 21",
            "brand": "no",
            "latitude": "54.634365",
            "longitude": "39.688800",
            "pulka": "yes",
            "school": "yes",
            "life": "yes",
            "phone": " "
        },
        {
            "city": "с.Каякент",
            "name": "Магазин \"Каролина_Кидс\"",
            "address": "ул. Шихсаидова",
            "brand": "no",
            "latitude": "42.397572",
            "longitude": "47.904262",
            "pulka": "yes",
            "school": "yes",
            "phone": " "
        },
        {
            "city": "с.Каякент",
            "name": "Магазин \"Каролина_Кидс\"",
            "address": "ул. Шихсаидова",
            "brand": "no",
            "latitude": "42.397572",
            "longitude": "47.904262",
            "pulka": "yes",
            "school": "yes",
            "phone": " "
        },
        {
            "city": "Самара",
            "name": "Магазин \"Kidsmoda\"",
            "address": "ТЦ \"Ладья\", ул. Лесная, д. 33",
            "brand": "no",
            "latitude": "53.215478",
            "longitude": "50.134096",
            "school": "yes",
            "life": "yes",
            "phone": " "
        },
        {
            "city": "Самара",
            "name": "Магазин \"Lapin House\"",
            "address": "ул. Льва Толстого, д. 57",
            "brand": "no",
            "latitude": "53.190785",
            "longitude": "50.099484",
            "school": "yes",
            "life": "yes",
            "phone": " "
        },
        {
            "city": "Самара",
            "name": "Магазин \"Waikiki\"",
            "address": "ТЦ \"Апельсин\",ул. Ново-Садовая, д. 305А, 3 этаж",
            "brand": "no",
            "latitude": "53.236502",
            "longitude": "50.191175",
            "school": "yes",
            "phone": " "
        },
        {
            "city": "Самара",
            "name": "Магазин \"Waikiki\"",
            "address": "ТЦ \"Русь на Волге\", Московское шоссе, д. 15Б",
            "brand": "no",
            "latitude": "53.212571",
            "longitude": "50.181823",
            "school": "yes",
            "phone": " "
        },
        {
            "city": "Санкт-Петербург",
            "name": "Магазин \"Винни ТОШ\"",
            "address": "ТЦ \"Ривер Хаус\", ул. Академика Павлова, д. 5",
            "brand": "no",
            "latitude": "59.977481",
            "longitude": "30.317692",
            "school": "yes",
            "life": "yes",
            "phone": " "
        },
        {
            "city": "Санкт-Петербург",
            "name": "Магазин \"Coco Kids\"",
            "address": "ТРК \"Охта Молл\", ул. Якорная, 5А",
            "brand": "no",
            "latitude": "59.940132",
            "longitude": "30.418060",
            "school": "yes",
            "life": "yes",
            "phone": " "
        },
        {
            "city": "Санкт-Петербург",
            "name": "Магазин \"Юниор-6\" ",
            "address": "ТРК \"Гранд Каньон\", пр-т Энгельса, д. 154 (3 этаж)",
            "brand": "no",
            "latitude": "60.059086",
            "longitude": "30.335020",
            "pulka": "yes",
            "school": "yes",
            "phone": " "
        },
        {
            "city": "Санкт-Петербург",
            "name": "Магазин \"Юниор-11\"",
            "address": "ТРК \"Европолис\", Полюстровский пр, д. 84А",
            "brand": "no",
            "latitude": "59.987600",
            "longitude": "30.353903",
            "pulka": "yes",
            "school": "yes",
            "phone": " "
        },
        {
            "city": "Санкт-Петербург",
            "name": "Магазин \"Юниор-9\"",
            "address": "ТЦ \"Лето\", Пулковское ш., д. 25, кор. 1, литер. А",
            "brand": "no",
            "latitude": "59.819802",
            "longitude": "30.317252",
            "pulka": "yes",
            "school": "yes",
            "phone": " "
        },
        {
            "city": "Санкт-Петербург",
            "name": "Магазин \"Юниор-5\"",
            "address": "ТРК \"Меркурий\", ул. Савушкина, д. 141 (2 этаж)",
            "brand": "no",
            "latitude": "59.990899",
            "longitude": "30.205780",
            "pulka": "yes",
            "school": "yes",
            "phone": " "
        },
        {
            "city": "Санкт-Петербург",
            "name": "Магазин \"Юниор-1\"",
            "address": "ТЦ \"Невский центр\", Невский пр-т, д. 114-116, лит. А",
            "brand": "no",
            "latitude": "59.931941",
            "longitude": "30.359149",
            "pulka": "yes",
            "school": "yes",
            "phone": " "
        },
        {
            "city": "Санкт-Петербург",
            "name": "Магазин \"Юниор-10\"",
            "address": "ТРЦ \"Радуга\", пр-т Космонавтов, д. 14 (2 этаж)",
            "brand": "no",
            "latitude": "59.868948",
            "longitude": "30.350480",
            "pulka": "yes",
            "school": "yes",
            "phone": " "
        },
        {
            "city": "Санкт-Петербург",
            "name": "Магазин \"Юниор-7\"",
            "address": "ТРК \"СИТИ МОЛЛ\", Коломяжский пр-т, д. 17, корп. 2, литер. А",
            "brand": "no",
            "latitude": "60.005374",
            "longitude": "30.300875",
            "pulka": "yes",
            "school": "yes",
            "phone": " "
        },
        {
            "city": "Санкт-Петербург",
            "name": "\"СТОКМАНН\"",
            "address": "ТК \"Невский Центр\", Невский пр-т, д. 114-116",
            "brand": "no",
            "latitude": "59.931941",
            "longitude": "30.359149",
            "pulka": "yes",
            "ceremony": "yes",
            "school": "yes",
            "phone": " "
        },
        {
            "city": "Саратов",
            "name": "Магазин \"АВС+\"",
            "address": "пр-т Кирова,  д. 46",
            "brand": "no",
            "latitude": "51.532470",
            "longitude": "46.023890",
            "pulka": "yes",
            "phone": " "
        },
        {
            "city": "Саратов",
            "name": "Магазин \"Сказка\"",
            "address": "ул. Большая Казачья, д. 32/89",
            "brand": "no",
            "latitude": "51.534156",
            "longitude": "46.025085",
            "school": "yes",
            "life": "yes",
            "phone": " "
        },
        {
            "city": "Семей",
            "name": "ТД «Аладдин»",
            "address": "пр-т Шакарима, д. 15В",
            "brand": "no",
            "latitude": "50.415183",
            "longitude": "80.252784",
            "pulka": "yes",
            "school": "yes",
            "life": "yes",
            "phone": " "
        },
        {
            "city": "Семей",
            "name": "ТД «КиндерВилль»",
            "address": "ул. Найманбаева, д. 151",
            "brand": "no",
            "latitude": "50.409758",
            "longitude": "80.256143",
            "pulka": "yes",
            "school": "yes",
            "life": "yes",
            "phone": " "
        },
        {
            "city": "Смоленск",
            "name": "Магазин \"Catimini\"",
            "address": "ул. Октябрьской революции, д. 40",
            "brand": "no",
            "latitude": "54.770282",
            "longitude": "32.042628",
            "pulka": "yes",
            "ceremony": "yes",
            "school": "yes",
            "life": "yes",
            "phone": " "
        },
        {
            "city": "Сочи",
            "name": "Магазин \"RICOSTA\"",
            "address": "ТЦ \"МореМолл\", ул. Новая Заря,  д. 7",
            "brand": "no",
            "latitude": "43.606247",
            "longitude": "39.732314",
            "pulka": "yes",
            "school": "yes",
            "life": "yes",
            "phone": " "
        },
        {
            "city": "Сочи",
            "name": "Магазин \"Модные Дети\"",
            "address": "Московская улица, д. 22",
            "brand": "no",
            "latitude": "43.594496",
            "longitude": "39.723044",
            "school": "yes",
            "phone": " "
        },
        {
            "city": "Сочи - Адлер",
            "name": "Магазин \"Кидсмоyes\"",
            "address": "ул. Демократическая, д. 38Е",
            "brand": "no",
            "latitude": "43.424791",
            "longitude": "39.925578",
            "school": "yes",
            "phone": " "
        },
        {
            "city": "Ставрополь",
            "name": "Магазин \"Trendy Kids\"",
            "address": "ТЦ \"Селена\", ул. Ленина, д. 347",
            "brand": "no",
            "latitude": "45.037662",
            "longitude": "41.944721",
            "school": "yes",
            "phone": " "
        },
        {
            "city": "Ставрополь",
            "name": "Магазин \"Trendy Kids\"",
            "address": "ТЦ \"Оранж-молл\", пр-т Юности, д. 5А",
            "brand": "no",
            "latitude": "45.060885",
            "longitude": "41.929064",
            "school": "yes",
            "phone": " "
        },
        {
            "city": "Ставрополь",
            "name": "Магазин \"Саботаж\"",
            "address": "ул. 50 лет ВЛКСМ, д. 53",
            "brand": "no",
            "latitude": "45.006654",
            "longitude": "41.920233",
            "school": "yes",
            "phone": " "
        },
        {
            "city": "Ставрополь",
            "name": "Магазин \"Bobo\"",
            "address": "ТЦ \"Космос\", ул. Доваторцев, д. 75А",
            "brand": "no",
            "latitude": "44.997470",
            "longitude": "41.923144",
            "pulka": "yes",
            "school": "yes",
            "phone": " "
        },
        {
            "city": "Сургут",
            "name": "ТЦ \"Сургут Сити Молл\"",
            "address": "Югорский тракт, д. 38, 2 этаж",
            "brand": "yes",
            "latitude": "61.239709",
            "longitude": "73.374105",
            "pulka": "yes",
            "ceremony": "yes",
            "school": "yes",
            "life": "yes",
            "phone": "+7(3462)58-37-58"
        },
        {
            "city": "Сургут",
            "name": "Магазин \"De Salitto\"",
            "address": "ТЦ \"Союз\", ул. 30 лет Победы, д. 46",
            "brand": "no",
            "latitude": "61.253944",
            "longitude": "73.433430",
            "pulka": "yes",
            "school": "yes",
            "life": "yes",
            "phone": " "
        },
        {
            "city": "Сухум",
            "name": "Магазин \"Гном\"",
            "address": "пр-т Аиааира, д. 68",
            "brand": "no",
            "latitude": "43.001188",
            "longitude": "41.021118",
            "school": "yes",
            "phone": " "
        },
        {
            "city": "Тамбов",
            "name": "Магазин \"НаследникЪ Выжанова\"",
            "address": "ул. Советская, д. 51",
            "brand": "no",
            "latitude": "52.712573",
            "longitude": "41.462847",
            "school": "yes",
            "phone": " "
        },
        {
            "city": "Тамбов",
            "name": "Магазин \"Амадео\"",
            "address": "ТЦ \"Цум\", ул. Коммунальная, д. 21",
            "brand": "no",
            "latitude": "52.722905",
            "longitude": "41.448186",
            "school": "yes",
            "phone": " "
        },
        {
            "city": "Тамбов",
            "name": "Магазин \"Амадео\"",
            "address": "ТЦ \"РИО\", ул. Советская, д. 99А",
            "brand": "no",
            "latitude": "52.724159",
            "longitude": "41.457071",
            "school": "yes",
            "phone": " "
        },
        {
            "city": "Тамбов",
            "name": "Магазин \"Модная сказка\"",
            "address": "ул. Чичерина, д. 58",
            "brand": "no",
            "latitude": "52.766762",
            "longitude": "41.401142",
            "school": "yes",
            "phone": " "
        },
        {
            "city": "Тверь",
            "name": "Магазин \"Вико\"",
            "address": "ТЦ \"Рубин\", пр-т Калинина, д. 15, стр. 1",
            "brand": "no",
            "latitude": "56.853720",
            "longitude": "35.865292",
            "school": "yes",
            "life": "yes",
            "phone": " "
        },
        {
            "city": "Тольятти",
            "name": "ТРК \"Русь на Волге\"",
            "address": "ул. Революционная, д. 52А, 3 этаж",
            "brand": "yes",
            "latitude": "53.517908",
            "longitude": "49.271902",
            "school": "yes",
            "phone": "+7(8482)98-00-45"
        },
        {
            "city": "Томск",
            "name": "Магазин \"Лимпопо\"",
            "address": "ул. Красноармейская, д. 96",
            "brand": "no",
            "latitude": "56.467235",
            "longitude": "84.965894",
            "pulka": "yes",
            "school": "yes",
            "phone": " "
        },
        {
            "city": "Томск",
            "name": "Магазин \"7 Чудес\"",
            "address": "ул. Дзержинского, д. 57",
            "brand": "no",
            "latitude": "56.465166",
            "longitude": "84.969738",
            "school": "yes",
            "life": "yes",
            "phone": " "
        },
        {
            "city": "Томск",
            "name": "Магазин \"Dodpetto\"",
            "address": "ТЦ ЦУМ, пр-т Ленина, 121",
            "brand": "no",
            "latitude": "56.490193",
            "longitude": "84.948951",
            "pulka": "yes",
            "phone": " "
        },
        {
            "city": "Тюмень",
            "name": "ТЦ \"Галерея Вояж\" ",
            "address": "ул. Герцена, д. 94",
            "brand": "yes",
            "latitude": "57.146051",
            "longitude": "65.541946",
            "pulka": "yes",
            "ceremony": "yes",
            "school": "yes",
            "life": "yes",
            "phone": "+7(3452)-60-28-54"
        },
        {
            "city": "Тюмень",
            "name": "ТЦ \"Гудвин\"",
            "address": "ул. Максима Горького, д. 70",
            "brand": "yes",
            "latitude": "57.148849",
            "longitude": "65.559867",
            "pulka": "yes",
            "ceremony": "yes",
            "school": "yes",
            "life": "yes",
            "phone": "+7(3452)-60-89-64"
        },
        {
            "city": "Усолье-Сибирское",
            "name": "Магазин \"Бульвар дети\"",
            "address": "Ленинский проспект, 66",
            "brand": "no",
            "latitude": "52.732353",
            "longitude": "103.664229",
            "school": "yes",
            "phone": " "
        },
        {
            "city": "Уссурийск",
            "name": "Магазин \"Мини Персона\"",
            "address": "ТЦ \"Москва\", ул. Суханова, д. 52, 5 этаж",
            "brand": "no",
            "latitude": "43.793486",
            "longitude": "131.954242",
            "pulka": "yes",
            "school": "yes",
            "life": "yes",
            "phone": " "
        },
        {
            "city": "Усть-Каменогорск",
            "name": "Магазин \"Vitamir\"",
            "address": "пр-т Ауэзова, д. 35/1",
            "brand": "no",
            "latitude": "49.949640",
            "longitude": "82.613754",
            "school": "yes",
            "life": "yes",
            "phone": " "
        },
        {
            "city": "Уфа",
            "name": "Магазин \"Dolce Kids\"",
            "address": "ТЦ \"Экватор\", ул. Ленина, д. 65/4",
            "brand": "no",
            "latitude": "54.738359",
            "longitude": "55.952843",
            "pulka": "yes",
            "school": "yes",
            "life": "yes",
            "phone": " "
        },
        {
            "city": "Уфа",
            "name": "Магазин \"Clever\"",
            "address": "ТЦ \"Башкортостан\", ул. Менделеева, д. 205А",
            "brand": "no",
            "latitude": "54.741410",
            "longitude": "56.026918",
            "school": "yes",
            "phone": " "
        },
        {
            "city": "Ухта",
            "name": "Магазин \"Этти Детти\"",
            "address": "ТЦ \"Березка\", ул. Октябрьская, д. 38 (1 этаж)",
            "brand": "no",
            "latitude": "63.561837",
            "longitude": "53.685477",
            "school": "yes",
            "phone": " "
        },
        {
            "city": "Хабаровск",
            "name": "Магазин “RAINBOW”",
            "address": "ТЦ \"Арлекин\", ул. Льва Толстого, д. 2",
            "brand": "no",
            "latitude": "48.484846",
            "longitude": "135.072941",
            "pulka": "yes",
            "school": "yes",
            "life": "yes",
            "phone": " "
        },
        {
            "city": "Хабаровск",
            "name": "Магазин “RAINBOW”",
            "address": "ТЦ \"НК Сити\", ул. К. Маркса, д. 76",
            "brand": "no",
            "latitude": "48.488034",
            "longitude": "135.084152",
            "pulka": "yes",
            "school": "yes",
            "life": "yes",
            "phone": " "
        },
        {
            "city": "Хасавюрт",
            "name": "Магазин \"Магия детства\"",
            "address": "ТЦ \"Березка\", Махачкалинское ш., д. 10, пав. 32",
            "brand": "no",
            "latitude": "43.237130",
            "longitude": "46.582220",
            "pulka": "yes",
            "ceremony": "yes",
            "school": "yes",
            "life": "yes",
            "phone": " "
        },
        {
            "city": "Хасавюрт",
            "name": "Магазин \"Счастливый малыш\"",
            "address": "ул. Татурбиева, д. 178",
            "brand": "no",
            "latitude": "43.241261",
            "longitude": "46.578932",
            "school": "yes",
            "phone": " "
        },
        {
            "city": "Химки",
            "name": "Магазин \"Kanz\"",
            "address": "ТЦ \"Мега Химки\", микрорайон ИКЕА, корп. 2",
            "brand": "no",
            "latitude": "55.909837",
            "longitude": "37.398186",
            "school": "yes",
            "phone": " "
        },
        {
            "city": "Химки",
            "name": "Магазин \"Франтик и Фифочка\"",
            "address": "ТЦ \"Новые Химки\", ул. Дружбы, д. 1А",
            "brand": "no",
            "latitude": "55.899265",
            "longitude": "37.408903",
            "school": "yes",
            "phone": " "
        },
        {
            "city": "Химки",
            "name": "\"СТОКМАНН\"",
            "address": "ТЦ \"МЕГА\", Московская область, г. Химки, микрорайон ИКЕА, корпус 2",
            "brand": "no",
            "latitude": "55.911143",
            "longitude": "37.396800",
            "pulka": "yes",
            "ceremony": "yes",
            "school": "yes",
            "phone": " "
        },
        {
            "city": "Челябинск",
            "name": "ТЦ \"Родник\"",
            "address": "ул. Труyes, д. 203 СКОРО ОТКРЫТИЕ",
            "brand": "yes",
            "latitude": "55.171051",
            "longitude": "61.355976",
            "pulka": "yes",
            "ceremony": "yes",
            "school": "yes",
            "life": "yes",
            "phone": " "
        },
        {
            "city": "Челябинск",
            "name": "Универмаг \"Детский мир\"",
            "address": "пр-т Ленина, д. 46",
            "brand": "no",
            "latitude": "55.160936",
            "longitude": "61.410306",
            "school": "yes",
            "phone": " "
        },
        {
            "city": "Черкесск",
            "name": "ТРЦ \"Россия\"",
            "address": "пр-т Ленина, д. 25  ",
            "brand": "no",
            "latitude": "44.224208",
            "longitude": "42.047318",
            "school": "yes",
            "phone": " "
        },
        {
            "city": "Чита",
            "name": "Магазин \"МАНИКА\"",
            "address": "ул. Ленина, д. 56",
            "brand": "no",
            "latitude": "52.030383",
            "longitude": "113.509520",
            "pulka": "yes",
            "school": "yes",
            "phone": " "
        },
        {
            "city": "Чита",
            "name": "Магазин \"Лимпопо\"",
            "address": "ул. Богомягкова, д. 14",
            "brand": "no",
            "latitude": "52.039774",
            "longitude": "113.494204",
            "pulka": "yes",
            "ceremony": "yes",
            "school": "yes",
            "life": "yes",
            "phone": " "
        },
        {
            "city": "Электросталь",
            "name": "Магазин \"Kids Club\"",
            "address": "ТЦ \"ЭльГрад\", пр-т Ленина, д. 0/10",
            "brand": "no",
            "latitude": "55.812990",
            "longitude": "38.430269",
            "school": "yes",
            "phone": " "
        },
        {
            "city": "Южно-Сахалинск",
            "name": "Магазин \"Underground junior\"",
            "address": "ТЦ \"Столица\", ул. Комсомольская, д. 259В",
            "brand": "no",
            "latitude": "46.936652",
            "longitude": "142.752989",
            "pulka": "yes",
            "school": "yes",
            "life": "yes",
            "phone": " "
        },
        {
            "city": "Южно-Сахалинск",
            "name": "Магазин \"Underground junior\"",
            "address": "ТЦ \"Сити Молл\", ул. 2-ая Центральная, д. 1Б",
            "brand": "no",
            "latitude": "46.900367",
            "longitude": "142.742227",
            "pulka": "yes",
            "school": "yes",
            "life": "yes",
            "phone": " "
        },
        {
            "city": "Якутск",
            "name": "Магазин \"Кашалот\"",
            "address": "202 микрорайон, корп. 2",
            "brand": "no",
            "latitude": "62.037321",
            "longitude": "129.758418",
            "pulka": "yes",
            "school": "yes",
            "life": "yes",
            "phone": " "
        }
    ]
