[
        {
            "name": "ТРЦ \"Аэропарк\"",
            "adress": "ул. Объездная, д. 30, 2 этаж",
            "tel": "+7(4832) 37-11-60, +7(4832) 37-11-88",
            "city": "Брянск",
            "brand": "yes",
            "Silver Spoon": "yes",
            "School and life": "yes",
            "Ceremony": "yes",
            "Pulka": "yes",
            "latitude": "53.275477",
            "longitude": "34.315877"
        },
        {
            "name": "ТРЦ \"Авеню\"",
            "adress": "пр-т Вернадского, д. 86А, 3 этаж",
            "tel": "+7(910)418-82-27",
            "city": "Москва",
            "brand": "yes",
            "Silver Spoon": "yes",
            "School and life": "yes",
            "Ceremony": "yes",
            "Pulka": "yes",
            "latitude": "55.663019",
            "longitude": "37.480993"
        },
        {
            "name": "ТЦ \"Сургут Сити Молл\"",
            "adress": "Югорский тракт, д. 38, 2 этаж",
            "tel": "+7(3462)58-37-58",
            "city": "Сургут",
            "brand": "yes",
            "Silver Spoon": "yes",
            "School and life": "yes",
            "Ceremony": "yes",
            "Pulka": "yes",
            "latitude": "61.239709",
            "longitude": "73.374105"
        },
        {
            "name": "ТЦ \"Галерея Вояж\" ",
            "adress": "ул. Герцена, д. 94",
            "tel": "+7(3452)-60-28-54",
            "city": "Тюмень",
            "brand": "yes",
            "Silver Spoon": "yes",
            "School and life": "yes",
            "Ceremony": "yes",
            "Pulka": "yes",
            "latitude": "57.146051",
            "longitude": "65.541946"
        },
        {
            "name": "ТРЦ \"Хорошо!\"",
            "adress": "Хорошевское шоссе, д. 27",
            "tel": "+7(495)123-53-56",
            "city": "Москва",
            "brand": "yes",
            "Silver Spoon": "yes",
            "School and life": "yes",
            "Ceremony": "yes",
            "Pulka": "yes",
            "latitude": "55.777099",
            "longitude": "37.523707"
        },
        {
            "name": "ТК \"Outlet Village Белая Дача\"",
            "adress": "Новорязанское шоссе, д. 8",
            "tel": "+7(985)865-79-47",
            "city": "Москва",
            "brand": "yes",
            "Silver Spoon": "yes",
            "School and life": "yes",
            "Ceremony": "yes",
            "Pulka": "yes",
            "latitude": "55.661176",
            "longitude": "37.880312"
        },
        {
            "name": "ТК \"The Outlet Moscow\"",
            "adress": "Красногорский район, дер. Воронки, 1к2",
            "tel": "+7(985)811-58-79",
            "city": "Москва",
            "brand": "yes",
            "Silver Spoon": "yes",
            "School and life": "yes",
            "Ceremony": "yes",
            "Pulka": "yes",
            "latitude": "55.792716",
            "longitude": "37.265091"
        },
        {
            "name": "ТРЦ \"Ривьера\"",
            "adress": "ул. Автозаводская, д. 18",
            "tel": "+7(916)941-52-89",
            "city": "Москва",
            "brand": "yes",
            "Silver Spoon": "yes",
            "School and life": "yes",
            "Ceremony": "yes",
            "Pulka": "yes",
            "latitude": "55.705452",
            "longitude": "37.637749"
        },
        {
            "name": "ТРЦ \"Этажи\"",
            "adress": "пр-т Имама Шамиля, д. 61",
            "tel": "+7(988) 291-22-11",
            "city": "Махачкала",
            "brand": "yes",
            "Silver Spoon": "yes",
            "School and life": "yes",
            "Ceremony": "yes",
            "Pulka": "yes",
            "latitude": "42.959042",
            "longitude": "47.506137"
        },
        {
            "name": "Магазин \"Silver Spoon\"",
            "adress": "ул. Абубакарова, д. 89",
            "tel": " ",
            "city": "Махачкала",
            "brand": "yes",
            "Silver Spoon": "yes",
            "School and life": "yes",
            "Ceremony": "yes",
            "Pulka": "yes",
            "latitude": "42.973199",
            "longitude": " 47.495681"
        },
        {
            "name": "ТЦ \"Гудвин\"",
            "adress": "ул. Максима Горького, д. 70",
            "tel": "+7(3452)-60-89-64",
            "city": "Тюмень",
            "brand": "yes",
            "Silver Spoon": "yes",
            "School and life": "yes",
            "Ceremony": "yes",
            "Pulka": "yes",
            "latitude": "57.148849",
            "longitude": "65.559867"
        },
        {
            "name": "ТЦ \"Красная площадь\"",
            "adress": "ул. Дзержинского, д. 100, 3 этаж",
            "tel": "+7(960)497-09-79",
            "city": "Краснодар",
            "brand": "yes",
            "Silver Spoon": "yes",
            "School and life": "yes",
            "Ceremony": "yes",
            "Pulka": "yes",
            "latitude": "45.102209",
            "longitude": "38.983847"
        },
        {
            "name": "ТРЦ \"Саларис\"",
            "adress": "Киевское шоссе, 23-й километр, д. 1, 2 этаж",
            "tel": "+7(916) 280-02-13",
            "city": "Москва",
            "brand": "yes",
            "Silver Spoon": "yes",
            "School and life": "yes",
            "Ceremony": "yes",
            "Pulka": "yes",
            "latitude": "55.623788",
            "longitude": "37.422027"
        },
        {
            "name": "ТЦ \"Армада 2\"",
            "adress": "Нежинское шоссе, д. 2А, 2 этаж",
            "tel": " ",
            "city": "Оренбург",
            "brand": "yes",
            "Silver Spoon": "yes",
            "School and life": "yes",
            "Ceremony": "yes",
            "Pulka": "yes",
            "latitude": "51.775851",
            "longitude": "55.198402"
        },
        {
            "name": "ТРЦ \"Золотой Вавилон\"",
            "adress": "ул. Малиновского, д. 25",
            "tel": " ",
            "city": "Ростов-на-Дону",
            "brand": "yes",
            "Silver Spoon": "yes",
            "School and life": "yes",
            "Ceremony": "yes",
            "Pulka": "yes",
            "latitude": "47.230505",
            "longitude": "39.610682"
        },
        {
            "name": "ТЦ \"Родник\"",
            "adress": "ул. Труда, д. 203 СКОРО ОТКРЫТИЕ",
            "tel": " ",
            "city": "Челябинск",
            "brand": "yes",
            "Silver Spoon": "yes",
            "School and life": "yes",
            "Ceremony": "yes",
            "Pulka": "yes",
            "latitude": "55.171051",
            "longitude": "61.355976"
        },
        {
            "name": "ТЦ \"Columbus\" ",
            "adress": "Кировоградская ул., 13А (3 уровень)",
            "tel": "+7(968)759-58-33",
            "city": "Москва",
            "brand": "yes",
            "Silver Spoon": "yes",
            "School and life": "yes",
            "Ceremony": "yes",
            "Pulka": "yes",
            "latitude": "55.612182",
            "longitude": "37.607026"
        }
    ]
